var urbanfarms_geojson = {
"type": "FeatureCollection",
"name": "Community_Gardens_of_Louisville",
"crs": { "type": "name", "properties": { "name": "urn:ogc:def:crs:EPSG::4269" } },
"features": [
{ "type": "Feature", "properties": { "Name": "William F. Miles Community Garden", "Latitude": 38.2424124390648, "Longitude": -85.464474220370406, "Side": "East Louisville", "Neighborhood": "Eastwood", "ChangeMHV": "45.9", "ChangeMHI": "73.8", "ChangeWHP": "28.8", "Image": "https:\/\/theparklands.org\/app\/uploads\/2020\/11\/JHN_Oct13ff-011.jpg" }, "geometry": { "type": "Point", "coordinates": [ -85.464474220370406, 38.2424124390648 ] } },
{ "type": "Feature", "properties": { "Name": "Sacred Earth Community Garden", "Latitude": 38.273067684546703, "Longitude": -85.817344057720902, "Side": "West Louisville\/Louisville's Central Business District", "Neighborhood": "Shawnee", "ChangeMHV": "63.9", "ChangeMHI": "5.8", "ChangeWHP": "4.0999999999999996", "Image": "sacredearthcommunitygarden.jpg" }, "geometry": { "type": "Point", "coordinates": [ -85.817344057720902, 38.273067684546703 ] } },
{ "type": "Feature", "properties": { "Name": "Louisville Grows Community Food Forest", "Latitude": 38.277567187324401, "Longitude": -85.797283686177906, "Side": "West Louisville\/Louisville's Central Business District", "Neighborhood": "Portland", "ChangeMHV": "76.099999999999994", "ChangeMHI": "202.4", "ChangeWHP": "-10.5", "Image": "louisvillegrowscommunityfoodforest.jpg" }, "geometry": { "type": "Point", "coordinates": [ -85.797283686177906, 38.277567187324401 ] } },
{ "type": "Feature", "properties": { "Name": "Russell Community Garden", "Latitude": 38.264442858259301, "Longitude": -85.790119267769796, "Side": "West Louisville\/Louisville's Central Business District", "Neighborhood": "Russell", "ChangeMHV": "-29.6", "ChangeMHI": "50.5", "ChangeWHP": "-19.5", "Image": "https:\/\/media.whas11.com\/assets\/WHAS\/images\/0155b195-aac1-495c-88ee-a91d8cab3a85\/0155b195-aac1-495c-88ee-a91d8cab3a85_1920x1080.jpg" }, "geometry": { "type": "Point", "coordinates": [ -85.790119267769796, 38.264442858259301 ] } },
{ "type": "Feature", "properties": { "Name": "7th Street Community Garden", "Latitude": 38.206158932933803, "Longitude": -85.790524156663295, "Side": "South Louisville", "Neighborhood": "Taylor Berry", "ChangeMHV": "0.5", "ChangeMHI": "6.8", "ChangeWHP": "-17", "Image": "https:\/\/www.ci.blaine.wa.us\/ImageRepository\/Document?documentID=14705" }, "geometry": { "type": "Point", "coordinates": [ -85.790524156663295, 38.206158932933803 ] } },
{ "type": "Feature", "properties": { "Name": "Garden Commons", "Latitude": 38.219511804293802, "Longitude": -85.757050187925699, "Side": "West Louisville\/Louisville's Central Business District", "Neighborhood": "Old Louisville", "ChangeMHV": "136.1", "ChangeMHI": "94.6", "ChangeWHP": "53.2", "Image": "https:\/\/louisville.edu\/sustainability\/images\/DSCN0564.jpg\/@@images\/25c52818-469e-40dc-8b28-e516900ab2cb.jpeg" }, "geometry": { "type": "Point", "coordinates": [ -85.757050187925699, 38.219511804293802 ] } },
{ "type": "Feature", "properties": { "Name": "Old Louisville Community Garden", "Latitude": 38.237042157053303, "Longitude": -85.7549902514249, "Side": "West Louisville\/Louisville's Central Business District", "Neighborhood": "Old Louisville", "ChangeMHV": "27.7", "ChangeMHI": "38.6", "ChangeWHP": "-1.1000000000000001", "Image": "oldlouisvillecommunitygarden.jpg" }, "geometry": { "type": "Point", "coordinates": [ -85.7549902514249, 38.237042157053303 ] } },
{ "type": "Feature", "properties": { "Name": "Limerick Community Garden", "Latitude": 38.244187934452597, "Longitude": -85.762715013441195, "Side": "West Louisville\/Louisville's Central Business District", "Neighborhood": "Limerick", "ChangeMHV": "7.2", "ChangeMHI": "32.200000000000003", "ChangeWHP": "2", "Image": "https:\/\/fastly.4sqi.net\/img\/general\/200x200\/1228147_bCLU9s7lfEHMLlQgCmToqStnP1XQbg4vDZXVs22iCx4.jpg" }, "geometry": { "type": "Point", "coordinates": [ -85.762715013441195, 38.244187934452597 ] } },
{ "type": "Feature", "properties": { "Name": "Portland Orchard Project", "Latitude": 38.262251484134701, "Longitude": -85.782971056061896, "Side": "West Louisville\/Louisville's Central Business District", "Neighborhood": "Portland", "ChangeMHV": "-4", "ChangeMHI": "81.5", "ChangeWHP": "-22.9", "Image": "portlandorchardproject.jpg" }, "geometry": { "type": "Point", "coordinates": [ -85.782971056061896, 38.262251484134701 ] } },
{ "type": "Feature", "properties": { "Name": "Shelby Park Community Garden", "Latitude": 38.238350311857602, "Longitude": -85.745702743213201, "Side": "West Louisville\/Louisville's Central Business District", "Neighborhood": "Shelby Park", "ChangeMHV": "98.9", "ChangeMHI": "84.2", "ChangeWHP": "31.2", "Image": "https:\/\/louisvillegrows.org\/wp-content\/uploads\/2020\/03\/Shelby_park_comm_garden_1.jpg" }, "geometry": { "type": "Point", "coordinates": [ -85.745702743213201, 38.238350311857602 ] } },
{ "type": "Feature", "properties": { "Name": "E.P. Tom Sawyer Park Community Garden", "Latitude": 38.294755649025198, "Longitude": -85.555643347227601, "Side": "East Louisville", "Neighborhood": "Hickory Hill", "ChangeMHV": "16.600000000000001", "ChangeMHI": "3.7", "ChangeWHP": "0.7", "Image": "https:\/\/parks.ky.gov\/sites\/default\/files\/styles\/listing_slideshow\/public\/listing_images\/profile\/29\/66cc7c50f27c4c59d4a1e00fcc70ae2f_slidermtngsEPtomwedding.jpg?itok=yTZ7r0Uv" }, "geometry": { "type": "Point", "coordinates": [ -85.555643347227601, 38.294755649025198 ] } },
{ "type": "Feature", "properties": { "Name": "German-Paristown Community Garden", "Latitude": 38.2352743801952, "Longitude": -85.730880487162096, "Side": "West Louisville\/Louisville's Central Business District", "Neighborhood": "Germantown", "ChangeMHV": "80.3", "ChangeMHI": "23", "ChangeWHP": "-0.5", "Image": "https:\/\/louisvilleky.gov\/sites\/default\/files\/styles\/large_teaser\/public\/migration\/images\/parks\/germanparistownparkflickr.jpg?itok=zdQC7JY0" }, "geometry": { "type": "Point", "coordinates": [ -85.730880487162096, 38.2352743801952 ] } },
{ "type": "Feature", "properties": { "Name": "Phoenix Hill Community Garden", "Latitude": 38.249517, "Longitude": -85.734729, "Side": "West Louisville\/Louisville's Central Business District", "Neighborhood": "Phoenix Hill", "ChangeMHV": "50.8", "ChangeMHI": "75.599999999999994", "ChangeWHP": "-6.3", "Image": "https:\/\/www.grownyc.org\/images\/ospace\/plantalot\/phoenix05.500.jpg" }, "geometry": { "type": "Point", "coordinates": [ -85.734729, 38.249517 ] } },
{ "type": "Feature", "properties": { "Name": "Shawnee Garden of Principles", "Latitude": 38.260594, "Longitude": -85.813115, "Side": "West Louisville\/Louisville's Central Business District", "Neighborhood": "Shawnee", "ChangeMHV": "14.3", "ChangeMHI": "0.2", "ChangeWHP": "14.9", "Image": "" }, "geometry": { "type": "Point", "coordinates": [ -85.813115, 38.260594 ] } },
{ "type": "Feature", "properties": { "Name": "St. Peter Claver Garden", "Latitude": 38.241288, "Longitude": -85.745257, "Side": "West Louisville\/Louisville's Central Business District", "Neighborhood": "Smoketown", "ChangeMHV": "122.1", "ChangeMHI": "120", "ChangeWHP": "52.2", "Image": "https:\/\/louisvillegrows.org\/wp-content\/uploads\/2020\/03\/spc_garden_1.jpg" }, "geometry": { "type": "Point", "coordinates": [ -85.745257, 38.241288 ] } },
{ "type": "Feature", "properties": { "Name": "Shawnee People's Garden", "Latitude": 38.270680046507202, "Longitude": -85.817916068615901, "Side": "West Louisville\/Louisville's Central Business District", "Neighborhood": "Shawnee", "ChangeMHV": "64", "ChangeMHI": "0.2", "ChangeWHP": "4.2", "Image": "https:\/\/i0.wp.com\/foodliteracyproject.org\/wp-content\/uploads\/2022\/01\/processed-f49688e1-5f68-4ce8-a8ed-e76fa8a859d7_6rblpVcI-1.jpeg?fit=915%2C686&ssl=1" }, "geometry": { "type": "Point", "coordinates": [ -85.817916068615901, 38.270680046507202 ] } },
{ "type": "Feature", "properties": { "Name": "Peaceful Eden Community Garden", "Latitude": 38.178156, "Longitude": -85.761717, "Side": "South Louisville", "Neighborhood": "Beechmont", "ChangeMHV": "36", "ChangeMHI": "28.4", "ChangeWHP": "-13.6", "Image": "https:\/\/assets.change.org\/photos\/0\/jc\/te\/GEjctezVfSsHPbZ-800x450-noPad.jpg?1608137416" }, "geometry": { "type": "Point", "coordinates": [ -85.761717, 38.178156 ] } },
{ "type": "Feature", "properties": { "Name": "Hope Garden", "Latitude": 38.254562, "Longitude": -85.794078, "Side": "West Louisville\/Louisville's Central Business District", "Neighborhood": "Parkland", "ChangeMHV": "9.1", "ChangeMHI": "61.8", "ChangeWHP": "33.4", "Image": "hopegarden.jpg" }, "geometry": { "type": "Point", "coordinates": [ -85.794078, 38.254562 ] } },
{ "type": "Feature", "properties": { "Name": "Justin Clark Memorial Community Herb Garden", "Latitude": 38.239747653451602, "Longitude": -85.731047260121002, "Side": "West Louisville\/Louisville's Central Business District", "Neighborhood": "Germantown", "ChangeMHV": "70.099999999999994", "ChangeMHI": "16.899999999999999", "ChangeWHP": "-0.1", "Image": "" }, "geometry": { "type": "Point", "coordinates": [ -85.731047260121002, 38.239747653451602 ] } },
{ "type": "Feature", "properties": { "Name": "Blue Lick Community Garden", "Latitude": 38.087782453466602, "Longitude": -85.685557698944606, "Side": "South Louisville", "Neighborhood": "Fairdale ", "ChangeMHV": "43.6", "ChangeMHI": "-20.6", "ChangeWHP": "-16.600000000000001", "Image": "bluelickcommunitygarden.jpg" }, "geometry": { "type": "Point", "coordinates": [ -85.685557698944606, 38.087782453466602 ] } },
{ "type": "Feature", "properties": { "Name": "Emerson Community Garden", "Latitude": 38.221327146608502, "Longitude": -85.739772490794394, "Side": "West Louisville\/Louisville's Central Business District", "Neighborhood": "Schnitzelburg", "ChangeMHV": "94.9", "ChangeMHI": "56.1", "ChangeWHP": "4.8", "Image": "emersoncommunitygarden.jpg" }, "geometry": { "type": "Point", "coordinates": [ -85.739772490794394, 38.221327146608502 ] } },
{ "type": "Feature", "properties": { "Name": "Parkland Community Garden", "Latitude": 38.236642029347003, "Longitude": -85.799761497781105, "Side": "West Louisville\/Louisville's Central Business District", "Neighborhood": "Parkland", "ChangeMHV": "-17", "ChangeMHI": "40.200000000000003", "ChangeWHP": "118.3", "Image": "parklandcommunitygarden.jpg" }, "geometry": { "type": "Point", "coordinates": [ -85.799761497781105, 38.236642029347003 ] } },
{ "type": "Feature", "properties": { "Name": "Farnsley Moreman Community Garden", "Latitude": 38.095892351248999, "Longitude": -85.893783821487403, "Side": "South Louisville", "Neighborhood": "Greenwood", "ChangeMHV": "31.7", "ChangeMHI": "43.6", "ChangeWHP": "-15.7", "Image": "farnsleymoremancommunitygarden.jpg" }, "geometry": { "type": "Point", "coordinates": [ -85.893783821487403, 38.095892351248999 ] } },
{ "type": "Feature", "properties": { "Name": "Southside Community Garden", "Latitude": 38.146679209824498, "Longitude": -85.768741122048496, "Side": "South Louisville", "Neighborhood": "Kenwood", "ChangeMHV": "25.2", "ChangeMHI": "10.8", "ChangeWHP": "-19.3", "Image": "southsidecommunitygarden.jpg" }, "geometry": { "type": "Point", "coordinates": [ -85.768741122048496, 38.146679209824498 ] } },
{ "type": "Feature", "properties": { "Name": "Americana Community Garden", "Latitude": 38.178898916504501, "Longitude": -85.764363788441102, "Side": "South Louisville", "Neighborhood": "Beechmont", "ChangeMHV": "45.1", "ChangeMHI": "23.2", "ChangeWHP": "4.0999999999999996", "Image": "americanacommunitygarden.jpg" }, "geometry": { "type": "Point", "coordinates": [ -85.764363788441102, 38.178898916504501 ] } },
{ "type": "Feature", "properties": { "Name": "Habitat for Humanity Garden", "Latitude": 38.261285658263901, "Longitude": -85.777166207395993, "Side": "East Louisville", "Neighborhood": "Klondike", "ChangeMHV": "9.5", "ChangeMHI": "108.2", "ChangeWHP": "-18.7", "Image": "" }, "geometry": { "type": "Point", "coordinates": [ -85.777166207395993, 38.261285658263901 ] } },
{ "type": "Feature", "properties": { "Name": "Francis Center Community Garden", "Latitude": 38.2225464843699, "Longitude": -85.650657742587796, "Side": "East Louisville", "Neighborhood": "Highgate Springs", "ChangeMHV": "42", "ChangeMHI": "13.6", "ChangeWHP": "-1.8", "Image": "" }, "geometry": { "type": "Point", "coordinates": [ -85.650657742587796, 38.2225464843699 ] } },
{ "type": "Feature", "properties": { "Name": "New Hope International Farm", "Latitude": 38.2204363122014, "Longitude": -85.711766219119895, "Side": "East Louisville", "Neighborhood": "Highlands", "ChangeMHV": "36", "ChangeMHI": "19.899999999999999", "ChangeWHP": "-5.5", "Image": "" }, "geometry": { "type": "Point", "coordinates": [ -85.711766219119895, 38.2204363122014 ] } },
{ "type": "Feature", "properties": { "Name": "UPA Horticulture Zone", "Latitude": 38.222075232364098, "Longitude": -85.763701903779406, "Side": "West Louisville\/Louisville's Central Business District", "Neighborhood": "Old Louisville", "ChangeMHV": "98.8", "ChangeMHI": "97.3", "ChangeWHP": "86.9", "Image": "upahorticulturezone.jpg" }, "geometry": { "type": "Point", "coordinates": [ -85.763701903779406, 38.222075232364098 ] } },
{ "type": "Feature", "properties": { "Name": "Leake Memorial Community Garden", "Latitude": 38.2565279660801, "Longitude": -85.687364438724799, "Side": "East Louisville", "Neighborhood": "Crescent Hill", "ChangeMHV": "58.7", "ChangeMHI": "26.1", "ChangeWHP": "-10.199999999999999", "Image": "" }, "geometry": { "type": "Point", "coordinates": [ -85.687364438724799, 38.2565279660801 ] } },
{ "type": "Feature", "properties": { "Name": "St. Ignatius Community Garden", "Latitude": 38.164376974762902, "Longitude": -85.665427430892393, "Side": "East Louisville", "Neighborhood": "Petersburg", "ChangeMHV": "33.200000000000003", "ChangeMHI": "38.4", "ChangeWHP": "-19.100000000000001", "Image": "stignatiuscommunitygarden.jpg" }, "geometry": { "type": "Point", "coordinates": [ -85.665427430892393, 38.164376974762902 ] } },
{ "type": "Feature", "properties": { "Name": "Maplewoods Apartment Garden", "Latitude": 38.180063580460299, "Longitude": -85.639023246111194, "Side": "East Louisville", "Neighborhood": "Newburg", "ChangeMHV": "65.5", "ChangeMHI": "33.299999999999997", "ChangeWHP": "-6.9", "Image": "" }, "geometry": { "type": "Point", "coordinates": [ -85.639023246111194, 38.180063580460299 ] } },
{ "type": "Feature", "properties": { "Name": "JCC Community Garden", "Latitude": 38.225698306469297, "Longitude": -85.649900684559597, "Side": "East Louisville", "Neighborhood": "Meadowview Estates", "ChangeMHV": "42.1", "ChangeMHI": "20.399999999999999", "ChangeWHP": "-2.8", "Image": "" }, "geometry": { "type": "Point", "coordinates": [ -85.649900684559597, 38.225698306469297 ] } },
{ "type": "Feature", "properties": { "Name": "Hunsinger Lane Baptist Church Garden", "Latitude": 38.202581538625402, "Longitude": -85.615413043494797, "Side": "East Louisville", "Neighborhood": "Highgate Springs", "ChangeMHV": "26.6", "ChangeMHI": "36.4", "ChangeWHP": "-6.9", "Image": "" }, "geometry": { "type": "Point", "coordinates": [ -85.615413043494797, 38.202581538625402 ] } },
{ "type": "Feature", "properties": { "Name": "Cabbage Patch Settlement House Garden", "Latitude": 38.2290308474509, "Longitude": -85.764578963294895, "Side": "West Louisville\/Louisville's Central Business District", "Neighborhood": "Old Louisville", "ChangeMHV": "90.5", "ChangeMHI": "36.299999999999997", "ChangeWHP": "15.6", "Image": "" }, "geometry": { "type": "Point", "coordinates": [ -85.764578963294895, 38.2290308474509 ] } },
{ "type": "Feature", "properties": { "Name": "Down Syndrome of Louisville Garden", "Latitude": 38.174512923386601, "Longitude": -85.605110061451896, "Side": "East Louisville", "Neighborhood": "Fern Creek", "ChangeMHV": "33.200000000000003", "ChangeMHI": "18", "ChangeWHP": "-0.1", "Image": "" }, "geometry": { "type": "Point", "coordinates": [ -85.605110061451896, 38.174512923386601 ] } },
{ "type": "Feature", "properties": { "Name": "Shively Library Community Garden", "Latitude": 38.195380632579798, "Longitude": -85.806888790285996, "Side": "South Louisville", "Neighborhood": "Jacobs", "ChangeMHV": "86.1", "ChangeMHI": "50.7", "ChangeWHP": "-23.3", "Image": "" }, "geometry": { "type": "Point", "coordinates": [ -85.806888790285996, 38.195380632579798 ] } },
{ "type": "Feature", "properties": { "Name": "Garden of Goodness", "Latitude": 38.234424728355997, "Longitude": -85.7657136479542, "Side": "West Louisville\/Louisville's Central Business District", "Neighborhood": "Limerick", "ChangeMHV": "46.8", "ChangeMHI": "21.1", "ChangeWHP": "-5.8", "Image": "gardenofgoodness.jpg" }, "geometry": { "type": "Point", "coordinates": [ -85.7657136479542, 38.234424728355997 ] } },
{ "type": "Feature", "properties": { "Name": "Youthbuild Garden", "Latitude": 38.2421533009868, "Longitude": -85.748221246108201, "Side": "West Louisville\/Louisville's Central Business District", "Neighborhood": "Old Louisville", "ChangeMHV": "116.7", "ChangeMHI": "105.8", "ChangeWHP": "54", "Image": "" }, "geometry": { "type": "Point", "coordinates": [ -85.748221246108201, 38.2421533009868 ] } },
{ "type": "Feature", "properties": { "Name": "LAMP Garden of Life", "Latitude": 38.25396, "Longitude": -85.759945, "Side": "West Louisville\/Louisville's Central Business District", "Neighborhood": "Downtown", "ChangeMHV": "23.3", "ChangeMHI": "39.299999999999997", "ChangeWHP": "5.8", "Image": "lampgardenoflife.jpg" }, "geometry": { "type": "Point", "coordinates": [ -85.759945, 38.25396 ] } },
{ "type": "Feature", "properties": { "Name": "St. Matthews Community Garden", "Latitude": 38.246863, "Longitude": -85.656262, "Side": "East Louisville", "Neighborhood": "St. Matthews", "ChangeMHV": "46.6", "ChangeMHI": "20.5", "ChangeWHP": "-4.2", "Image": "stmatthewscommunitygarden.jpg" }, "geometry": { "type": "Point", "coordinates": [ -85.656262, 38.246863 ] } },
{ "type": "Feature", "properties": { "Name": "Norton Commons Community Garden", "Latitude": 38.328655, "Longitude": -85.573723, "Side": "East Louisville", "Neighborhood": "Norton Commons", "ChangeMHV": "19.8", "ChangeMHI": "29.4", "ChangeWHP": "29.4", "Image": "nortoncommonscommunitygarden.jpg" }, "geometry": { "type": "Point", "coordinates": [ -85.573723, 38.328655 ] } },
{ "type": "Feature", "properties": { "Name": "Blackacre Community Garden", "Latitude": 38.192889715136403, "Longitude": -85.524553134461598, "Side": "East Louisville", "Neighborhood": "Tucker Station", "ChangeMHV": "103.3", "ChangeMHI": "38.1", "ChangeWHP": "-31.5", "Image": "blackacrecommunitygarden.jpg" }, "geometry": { "type": "Point", "coordinates": [ -85.524553134461598, 38.192889715136403 ] } }
]
}